{
"type": "FeatureCollection",
"crs": { "type": "name", "properties": { "name": "urn:ogc:def:crs:OGC:1.3:CRS84" } },
                                                                                
"features": [
{ "type": "Feature", "properties": { "NAME": "RFD Station 23", "ADDRESS": "8312 Pinecrest Rd", "CITY": "Raleigh", "ZIP": "27613", "TELEPHONE": "(919) 996-6115" }, "geometry": { "type": "Point", "coordinates": [ -78.726776888841655, 35.896961817516683 ] } },
{ "type": "Feature", "properties": { "NAME": "RFD Station 17", "ADDRESS": "4601 Pleasant Valley Rd", "CITY": "Raleigh", "ZIP": "27612", "TELEPHONE": "(919) 996-6115" }, "geometry": { "type": "Point", "coordinates": [ -78.711696164828567, 35.859566112561566 ] } },
{ "type": "Feature", "properties": { "NAME": "RFD Station 14", "ADDRESS": "4220 Lake Boone Tr", "CITY": "Raleigh", "ZIP": "27607", "TELEPHONE": "(919) 996-6115" }, "geometry": { "type": "Point", "coordinates": [ -78.701713936746202, 35.81579500400624 ] } },
{ "type": "Feature", "properties": { "NAME": "RFD Station 8", "ADDRESS": "5001 Western Blvd", "CITY": "Raleigh", "ZIP": "27606", "TELEPHONE": "(919) 996-6115" }, "geometry": { "type": "Point", "coordinates": [ -78.708671317010456, 35.786232180385575 ] } },
{ "type": "Feature", "properties": { "NAME": "RFD Station 20", "ADDRESS": "1721 Trailwood Dr", "CITY": "Raleigh", "ZIP": "27606", "TELEPHONE": "(919) 996-6115" }, "geometry": { "type": "Point", "coordinates": [ -78.692822271259899, 35.756004413770405 ] } },
{ "type": "Feature", "properties": { "NAME": "RFD Station 2", "ADDRESS": "263 Pecan Rd", "CITY": "Raleigh", "ZIP": "27603", "TELEPHONE": "(919) 996-6115" }, "geometry": { "type": "Point", "coordinates": [ -78.647997484156932, 35.748445063647949 ] } },
{ "type": "Feature", "properties": { "NAME": "RFD Station 12", "ADDRESS": "3409 Poole Rd", "CITY": "Raleigh", "ZIP": "27610", "TELEPHONE": "(919) 996-6115" }, "geometry": { "type": "Point", "coordinates": [ -78.579865374557755, 35.768894379161551 ] } },
{ "type": "Feature", "properties": { "NAME": "RFD Station 10", "ADDRESS": "2711 Sanderford Rd", "CITY": "Raleigh", "ZIP": "27610", "TELEPHONE": "(919) 996-6115" }, "geometry": { "type": "Point", "coordinates": [ -78.613156422350798, 35.741719539904302 ] } },
{ "type": "Feature", "properties": { "NAME": "RFD Station 3", "ADDRESS": "13 S. East St", "CITY": "Raleigh", "ZIP": "27601", "TELEPHONE": "(919) 996-6115" }, "geometry": { "type": "Point", "coordinates": [ -78.632204978416212, 35.779490803818192 ] } },
{ "type": "Feature", "properties": { "NAME": "RFD Station 5", "ADDRESS": "300 Oberlin Rd", "CITY": "Raleigh", "ZIP": "27605", "TELEPHONE": "(919) 996-6115" }, "geometry": { "type": "Point", "coordinates": [ -78.661863723387043, 35.788266649398459 ] } },
{ "type": "Feature", "properties": { "NAME": "RFD Station 6", "ADDRESS": "2601 Fairview Rd", "CITY": "Raleigh", "ZIP": "27608", "TELEPHONE": "(919) 996-6115" }, "geometry": { "type": "Point", "coordinates": [ -78.655801971312812, 35.809014464754824 ] } },
{ "type": "Feature", "properties": { "NAME": "RFD Station 7", "ADDRESS": "2100 Glascock St", "CITY": "Raleigh", "ZIP": "27610", "TELEPHONE": "(919) 996-6115" }, "geometry": { "type": "Point", "coordinates": [ -78.612775338551245, 35.79260965090532 ] } },
{ "type": "Feature", "properties": { "NAME": "RFD Station 28", "ADDRESS": "3500 Forestville Rd", "CITY": "Raleigh", "ZIP": "27616", "TELEPHONE": "(919) 996-6115" }, "geometry": { "type": "Point", "coordinates": [ -78.51036538247341, 35.882472771696598 ] } },
{ "type": "Feature", "properties": { "NAME": "RFD Station 11", "ADDRESS": "2925 Glenridge Rd", "CITY": "Raleigh", "ZIP": "27604", "TELEPHONE": "(919) 996-6115" }, "geometry": { "type": "Point", "coordinates": [ -78.600509244558538, 35.819669697023905 ] } },
{ "type": "Feature", "properties": { "NAME": "RFD Station 19", "ADDRESS": "4209 Spring Forest Rd", "CITY": "Raleigh", "ZIP": "27616", "TELEPHONE": "(919) 996-6115" }, "geometry": { "type": "Point", "coordinates": [ -78.57097737131177, 35.85644543111929 ] } },
{ "type": "Feature", "properties": { "NAME": "RFD Station 15", "ADDRESS": "1815 Spring Forest Rd", "CITY": "Raleigh", "ZIP": "27615", "TELEPHONE": "(919) 996-6115" }, "geometry": { "type": "Point", "coordinates": [ -78.607930556167489, 35.866791222741142 ] } },
{ "type": "Feature", "properties": { "NAME": "RFD Station 16", "ADDRESS": "5225 Lead Mine Rd", "CITY": "Raleigh", "ZIP": "27612", "TELEPHONE": "(919) 996-6115" }, "geometry": { "type": "Point", "coordinates": [ -78.673106235837793, 35.852654376534076 ] } },
{ "type": "Feature", "properties": { "NAME": "RFD Station 1", "ADDRESS": "220 S. Dawson St", "CITY": "Raleigh", "ZIP": "27601", "TELEPHONE": "(919) 996-6115" }, "geometry": { "type": "Point", "coordinates": [ -78.643753155528373, 35.777620227496051 ] } },
{ "type": "Feature", "properties": { "NAME": "RFD Station 21", "ADDRESS": "2651 Southall Rd", "CITY": "Raleigh", "ZIP": "27604", "TELEPHONE": "(919) 996-6115" }, "geometry": { "type": "Point", "coordinates": [ -78.556091229335493, 35.81098269010613 ] } },
{ "type": "Feature", "properties": { "NAME": "RFD Station 22", "ADDRESS": "9350 Durant Rd", "CITY": "Raleigh", "ZIP": "27614", "TELEPHONE": "(919) 996-6115" }, "geometry": { "type": "Point", "coordinates": [ -78.570597597485616, 35.897995198203503 ] } },
{ "type": "Feature", "properties": { "NAME": "RFD Station 24", "ADDRESS": "10440 Fossil Creek Ct", "CITY": "Raleigh", "ZIP": "27617", "TELEPHONE": "(919) 996-6115" }, "geometry": { "type": "Point", "coordinates": [ -78.796667559767513, 35.901762786793626 ] } },
{ "type": "Feature", "properties": { "NAME": "RFD Station 25", "ADDRESS": "2740 Wakefield Crossing", "CITY": "Raleigh", "ZIP": "27614", "TELEPHONE": "(919) 996-6115" }, "geometry": { "type": "Point", "coordinates": [ -78.558655115919166, 35.940056582747381 ] } },
{ "type": "Feature", "properties": { "NAME": "RFD Station 27", "ADDRESS": "5916 Buffaloe Rd", "CITY": "Raleigh", "ZIP": "27616", "TELEPHONE": "(919) 996-6115" }, "geometry": { "type": "Point", "coordinates": [ -78.541381237365897, 35.841187342448279 ] } },
{ "type": "Feature", "properties": { "NAME": "RFD Station 26", "ADDRESS": "3929 Barwell Rd", "CITY": "Raleigh", "ZIP": "27610", "TELEPHONE": "(919) 996-6115" }, "geometry": { "type": "Point", "coordinates": [ -78.554868917438668, 35.732387543107095 ] } },
{ "type": "Feature", "properties": { "NAME": "RFD Station 18", "ADDRESS": "8200 Morgans Way", "CITY": "Raleigh", "ZIP": "27613", "TELEPHONE": "(919) 996-6115" }, "geometry": { "type": "Point", "coordinates": [ -78.680868167477001, 35.894140933532178 ] } },
{ "type": "Feature", "properties": { "NAME": "RFD Station 9", "ADDRESS": "4465 Six Forks Rd", "CITY": "Raleigh", "ZIP": "27609", "TELEPHONE": "(919) 996-6115" }, "geometry": { "type": "Point", "coordinates": [ -78.643112052022914, 35.841305884166985 ] } },
{ "type": "Feature", "properties": { "NAME": "RFD Station 4", "ADDRESS": "121 Northway Ct", "CITY": "Raleigh", "ZIP": "27615", "TELEPHONE": "(919) 996-6115" }, "geometry": { "type": "Point", "coordinates": [ -78.64838530694449, 35.882536077519589 ] } }
]
}
