{
"type": "FeatureCollection",
"crs": { "type": "name", "properties": { "name": "urn:ogc:def:crs:OGC:1.3:CRS84" } },
                                                                                
"features": [
{ "type": "Feature", "properties": { "name": "Station 23", "address": "8312 Pinecrest Rd", "city": "Raleigh", "zip": "27613", "phone": "(919) 996-6115" }, "geometry": { "type": "Point", "coordinates": [ -78.726776888841655, 35.896961817516683 ] } },
{ "type": "Feature", "properties": { "name": "Station 17", "address": "4601 Pleasant Valley Rd", "city": "Raleigh", "zip": "27612", "phone": "(919) 996-6115" }, "geometry": { "type": "Point", "coordinates": [ -78.711696164828567, 35.859566112561566 ] } },
{ "type": "Feature", "properties": { "name": "Station 14", "address": "4220 Lake Boone Tr", "city": "Raleigh", "zip": "27607", "phone": "(919) 996-6115" }, "geometry": { "type": "Point", "coordinates": [ -78.701713936746202, 35.81579500400624 ] } },
{ "type": "Feature", "properties": { "name": "Station 8", "address": "5001 Western Blvd", "city": "Raleigh", "zip": "27606", "phone": "(919) 996-6115" }, "geometry": { "type": "Point", "coordinates": [ -78.708671317010456, 35.786232180385575 ] } },
{ "type": "Feature", "properties": { "name": "Station 20", "address": "1721 Trailwood Dr", "city": "Raleigh", "zip": "27606", "phone": "(919) 996-6115" }, "geometry": { "type": "Point", "coordinates": [ -78.692822271259899, 35.756004413770405 ] } },
{ "type": "Feature", "properties": { "name": "Station 2", "address": "263 Pecan Rd", "city": "Raleigh", "zip": "27603", "phone": "(919) 996-6115" }, "geometry": { "type": "Point", "coordinates": [ -78.647997484156932, 35.748445063647949 ] } },
{ "type": "Feature", "properties": { "name": "Station 12", "address": "3409 Poole Rd", "city": "Raleigh", "zip": "27610", "phone": "(919) 996-6115" }, "geometry": { "type": "Point", "coordinates": [ -78.579865374557755, 35.768894379161551 ] } },
{ "type": "Feature", "properties": { "name": "Station 10", "address": "2711 Sanderford Rd", "city": "Raleigh", "zip": "27610", "phone": "(919) 996-6115" }, "geometry": { "type": "Point", "coordinates": [ -78.613156422350798, 35.741719539904302 ] } },
{ "type": "Feature", "properties": { "name": "Station 3", "address": "13 S. East St", "city": "Raleigh", "zip": "27601", "phone": "(919) 996-6115" }, "geometry": { "type": "Point", "coordinates": [ -78.632204978416212, 35.779490803818192 ] } },
{ "type": "Feature", "properties": { "name": "Station 5", "address": "300 Oberlin Rd", "city": "Raleigh", "zip": "27605", "phone": "(919) 996-6115" }, "geometry": { "type": "Point", "coordinates": [ -78.661863723387043, 35.788266649398459 ] } },
{ "type": "Feature", "properties": { "name": "Station 6", "address": "2601 Fairview Rd", "city": "Raleigh", "zip": "27608", "phone": "(919) 996-6115" }, "geometry": { "type": "Point", "coordinates": [ -78.655801971312812, 35.809014464754824 ] } },
{ "type": "Feature", "properties": { "name": "Station 7", "address": "2100 Glascock St", "city": "Raleigh", "zip": "27610", "phone": "(919) 996-6115" }, "geometry": { "type": "Point", "coordinates": [ -78.612775338551245, 35.79260965090532 ] } },
{ "type": "Feature", "properties": { "name": "Station 28", "address": "3500 Forestville Rd", "city": "Raleigh", "zip": "27616", "phone": "(919) 996-6115" }, "geometry": { "type": "Point", "coordinates": [ -78.51036538247341, 35.882472771696598 ] } },
{ "type": "Feature", "properties": { "name": "Station 11", "address": "2925 Glenridge Rd", "city": "Raleigh", "zip": "27604", "phone": "(919) 996-6115" }, "geometry": { "type": "Point", "coordinates": [ -78.600509244558538, 35.819669697023905 ] } },
{ "type": "Feature", "properties": { "name": "Station 19", "address": "4209 Spring Forest Rd", "city": "Raleigh", "zip": "27616", "phone": "(919) 996-6115" }, "geometry": { "type": "Point", "coordinates": [ -78.57097737131177, 35.85644543111929 ] } },
{ "type": "Feature", "properties": { "name": "Station 15", "address": "1815 Spring Forest Rd", "city": "Raleigh", "zip": "27615", "phone": "(919) 996-6115" }, "geometry": { "type": "Point", "coordinates": [ -78.607930556167489, 35.866791222741142 ] } },
{ "type": "Feature", "properties": { "name": "Station 16", "address": "5225 Lead Mine Rd", "city": "Raleigh", "zip": "27612", "phone": "(919) 996-6115" }, "geometry": { "type": "Point", "coordinates": [ -78.673106235837793, 35.852654376534076 ] } },
{ "type": "Feature", "properties": { "name": "Station 1", "address": "220 S. Dawson St", "city": "Raleigh", "zip": "27601", "phone": "(919) 996-6115" }, "geometry": { "type": "Point", "coordinates": [ -78.643753155528373, 35.777620227496051 ] } },
{ "type": "Feature", "properties": { "name": "Station 21", "address": "2651 Southall Rd", "city": "Raleigh", "zip": "27604", "phone": "(919) 996-6115" }, "geometry": { "type": "Point", "coordinates": [ -78.556091229335493, 35.81098269010613 ] } },
{ "type": "Feature", "properties": { "name": "Station 22", "address": "9350 Durant Rd", "city": "Raleigh", "zip": "27614", "phone": "(919) 996-6115" }, "geometry": { "type": "Point", "coordinates": [ -78.570597597485616, 35.897995198203503 ] } },
{ "type": "Feature", "properties": { "name": "Station 24", "address": "10440 Fossil Creek Ct", "city": "Raleigh", "zip": "27617", "phone": "(919) 996-6115" }, "geometry": { "type": "Point", "coordinates": [ -78.796667559767513, 35.901762786793626 ] } },
{ "type": "Feature", "properties": { "name": "Station 25", "address": "2740 Wakefield Crossing", "city": "Raleigh", "zip": "27614", "phone": "(919) 996-6115" }, "geometry": { "type": "Point", "coordinates": [ -78.558655115919166, 35.940056582747381 ] } },
{ "type": "Feature", "properties": { "name": "Station 27", "address": "5916 Buffaloe Rd", "city": "Raleigh", "zip": "27616", "phone": "(919) 996-6115" }, "geometry": { "type": "Point", "coordinates": [ -78.541381237365897, 35.841187342448279 ] } },
{ "type": "Feature", "properties": { "name": "Station 26", "address": "3929 Barwell Rd", "city": "Raleigh", "zip": "27610", "phone": "(919) 996-6115" }, "geometry": { "type": "Point", "coordinates": [ -78.554868917438668, 35.732387543107095 ] } },
{ "type": "Feature", "properties": { "name": "Station 18", "address": "8200 Morgans Way", "city": "Raleigh", "zip": "27613", "phone": "(919) 996-6115" }, "geometry": { "type": "Point", "coordinates": [ -78.680868167477001, 35.894140933532178 ] } },
{ "type": "Feature", "properties": { "name": "Station 9", "address": "4465 Six Forks Rd", "city": "Raleigh", "zip": "27609", "phone": "(919) 996-6115" }, "geometry": { "type": "Point", "coordinates": [ -78.643112052022914, 35.841305884166985 ] } },
{ "type": "Feature", "properties": { "name": "Station 4", "address": "121 Northway Ct", "city": "Raleigh", "zip": "27615", "phone": "(919) 996-6115" }, "geometry": { "type": "Point", "coordinates": [ -78.64838530694449, 35.882536077519589 ] } }
]
}
